[{"id":0,"name":"Südlicher Schlierkopfwald","lat":49.033534318003134,"lng":8.929964145131116,"description":"Wir waren gestern hier unterwegs und haben wie jedes Jahr im September sehr viele Pfifferlinge gefunden. Sie sind quasi überall","type":"Pfifferling","rating":5},{"id":1,"name":"Toller Wald um Winterpilze zu sammeln","lat":47.67026742124136,"lng":9.2050329581777,"description":"Hier haben wir im Januar tolle Beute gemacht.","type":"Speise Morchel","rating":3},{"id":2,"name":"Wald hinter der Zundelbacher Linde","lat":47.799481396923824,"lng":9.668378636377241,"description":"Läuft man hinter der Linde in den Wald kann man dort im August/September viele Herbsttrompeten finden. \n","type":"Herbsttrompete","rating":4},{"id":3,"name":"Fichtenwald mit Pfifferlingen","lat":46.800653679762576,"lng":12.809204017136727,"description":"An diesem steilen Berghang lohnt sich der Aufstieg! Der Boden ist schön frei, sodass man viele Pfifferlinge aufspüren kann.","type":"Pfifferling","rating":5},{"id":4,"name":"Mehr als man mitnehmen könnte!","lat":47.6150219811358,"lng":9.180559103899407,"description":"Wir wurden nachdem wir ein paar Meter in diesen schönen Wald gelaufen waren von Birken-Rotkappe nur so überflutet.\n\nUnsere Körper waren schneller voll, als wir gucken konnten.","type":"Birken-Rotkappe","rating":5},{"id":5,"name":"Explosive Pilze im Minenfeld","lat":48.15956677395429,"lng":9.020175802048458,"description":"Man-o-man...\nWir sind hier durch das Minenfeld gewandert und haben den seltenen Atompilz gesucht. Dabei habe ich doch glatt meinen Korb auf eine alte Mine gestellt und er wurde in 1000 Teile zerfetzt... Das ganze Sammeln um sonst.. na toll... Wat dennoch witzig. ","type":"Steinpilz","rating":5},{"id":6,"name":"Leckere Krause Gluke gefunden","lat":48.33488210994339,"lng":9.69492622377144,"description":"Dieser Wald bietet den perfekten Nährboden für die Krause Gluke. Wir haben eine super leckere Pilzpfanne zubereitet. Auch meinem Mann, der immer Scheu vor Waldpilzen hat, haben sie sehr gut geschmeckt. Ein voller Erfolg!","type":"Krause Gluke","rating":5}]