[{"id":0,"lat":49.03994627061647,"lng":8.520279754980324,"rating":3},{"id":1,"lat":49.06059468909428,"lng":8.561830487377039,"rating":5},{"id":2,"name":"aa","lat":49.04686987832716,"lng":8.530394354019448,"description":"aaa","type":"Herbsttrompete","rating":0},{"id":3,"name":"fagarg","lat":49.02085359876267,"lng":8.518489904173638,"description":"","type":"Steinpilz","rating":0},{"id":4,"name":"asdgasdg","lat":49.05585490833669,"lng":8.482932173020027,"description":"sadgasd","type":"Birken-Rotkappe","rating":0},{"id":5,"name":"eradhstfh","lat":49.15457011190901,"lng":8.575283051397063,"description":"dfghfdg","type":"Schoftintling","rating":[]},{"id":6,"name":"sdagdsag","lat":49.228347917731895,"lng":8.831146907461218,"description":"qwef","type":"Steinpilz","rating":3},{"id":7,"name":"aeq","lat":49.079994908822336,"lng":8.519601533260419,"description":"asdasd","type":"Speise Morchel","rating":[]},{"id":8,"name":"ddd","lat":41.445996353274246,"lng":9.034890099366606,"description":"ddd","type":"Birken-Rotkappe","rating":0},{"id":9,"name":"Südlicher Schlierkopfwald","lat":49.033534318003134,"lng":8.929964145131116,"description":"Wir waren gestern hier unterwegs und haben wie jedes Jahr im November sehr viele Pfifferlinge gefunden. Sie sind quasi überall","type":"Pfifferling","rating":0},{"id":10,"name":"Toller Wald um Winterpilze zu sammeln","lat":47.67026742124136,"lng":9.2050329581777,"description":"Hier haben wir im Januar tolle Beute gemacht.","type":"Speise Morchel","rating":3}]